{"type": "FeatureCollection", "features": [{"geometry": {"type": "Point", "coordinates": [106.05347803207513, 35.54676279549229]}, "properties": {"name": "Longde County"}, "type": "Feature"}, {"geometry": {"type": "Point", "coordinates": [106.67589563116704, 35.98143842896924]}, "properties": {"name": "Pengyang"}, "type": "Feature"}, {"geometry": {"type": "Point", "coordinates": [105.71401692454403, 35.89481987413243]}, "properties": {"name": "Xiji County"}, "type": "Feature"}, {"geometry": {"type": "Point", "coordinates": [106.28526085189098, 36.11690111784408]}, "properties": {"name": "Yuanzhou"}, "type": "Feature"}, {"geometry": {"type": "Point", "coordinates": [106.3535201832222, 35.52847856175982]}, "properties": {"name": "Jingyuan County"}, "type": "Feature"}]}