{"type": "FeatureCollection", "features": [{"geometry": {"type": "Point", "coordinates": [106.25622530988156, 38.66135857429396]}, "properties": {"name": "Helan County"}, "type": "Feature"}, {"geometry": {"type": "Point", "coordinates": [106.20501951354551, 38.47506396556597]}, "properties": {"name": "Jinfeng District"}, "type": "Feature"}, {"geometry": {"type": "Point", "coordinates": [106.47544043613267, 37.96540119151663]}, "properties": {"name": "Lingwu"}, "type": "Feature"}, {"geometry": {"type": "Point", "coordinates": [105.99995657789266, 38.547058782568655]}, "properties": {"name": "Xixia"}, "type": "Feature"}, {"geometry": {"type": "Point", "coordinates": [106.4292758855987, 38.451848974384724]}, "properties": {"name": "Xingqing District"}, "type": "Feature"}, {"geometry": {"type": "Point", "coordinates": [106.08711818069798, 38.29504570629063]}, "properties": {"name": "Yongning County"}, "type": "Feature"}]}