{"type": "FeatureCollection", "features": [{"geometry": {"type": "Point", "coordinates": [113.94063801286512, 30.28342006004253]}, "properties": {"name": "Hannan"}, "type": "Feature"}, {"geometry": {"type": "Point", "coordinates": [114.19585878159046, 30.5499084088215]}, "properties": {"name": "Hanyang District"}, "type": "Feature"}, {"geometry": {"type": "Point", "coordinates": [114.08450368000233, 30.679196606491978]}, "properties": {"name": "East Lake"}, "type": "Feature"}, {"geometry": {"type": "Point", "coordinates": [113.96936797741157, 30.45937867616172]}, "properties": {"name": "Caidian"}, "type": "Feature"}, {"geometry": {"type": "Point", "coordinates": [114.21881858687973, 30.599423757576226]}, "properties": {"name": "Port District"}, "type": "Feature"}, {"geometry": {"type": "Point", "coordinates": [114.40146028444163, 30.533267307536725]}, "properties": {"name": "Hongshan District"}, "type": "Feature"}, {"geometry": {"type": "Point", "coordinates": [114.34790341838406, 30.928697409368706]}, "properties": {"name": "Huangpi"}, "type": "Feature"}, {"geometry": {"type": "Point", "coordinates": [114.3235023581815, 30.648878878836612]}, "properties": {"name": "Riverbank area"}, "type": "Feature"}, {"geometry": {"type": "Point", "coordinates": [114.26093083378058, 30.596591571508704]}, "properties": {"name": "Jianghan District"}, "type": "Feature"}, {"geometry": {"type": "Point", "coordinates": [114.37668706163765, 30.275399576739364]}, "properties": {"name": "Jiangxia District"}, "type": "Feature"}, {"geometry": {"type": "Point", "coordinates": [114.38912533333445, 30.632587268709223]}, "properties": {"name": "Castle Peak District"}, "type": "Feature"}, {"geometry": {"type": "Point", "coordinates": [114.32912036538882, 30.568637190575306]}, "properties": {"name": "Wuchang District"}, "type": "Feature"}, {"geometry": {"type": "Point", "coordinates": [114.78951619572734, 30.844470540297955]}, "properties": {"name": "Xinzhou District"}, "type": "Feature"}]}