{"type": "FeatureCollection", "features": [{"geometry": {"type": "Point", "coordinates": [111.1555758043316, 31.759708580636794]}, "properties": {"name": "Baokang County"}, "type": "Feature"}, {"geometry": {"type": "Point", "coordinates": [111.93583742115844, 32.14208083790403]}, "properties": {"name": "Fancheng"}, "type": "Feature"}, {"geometry": {"type": "Point", "coordinates": [111.46237886616292, 32.15460921812695]}, "properties": {"name": "Valley County"}, "type": "Feature"}, {"geometry": {"type": "Point", "coordinates": [111.75007706135536, 32.42412128963896]}, "properties": {"name": "Laohekou"}, "type": "Feature"}, {"geometry": {"type": "Point", "coordinates": [111.73969750795379, 31.599200816248505]}, "properties": {"name": "Nanzhang"}, "type": "Feature"}, {"geometry": {"type": "Point", "coordinates": [112.04811801512244, 31.944219920842354]}, "properties": {"name": "Xiangcheng District"}, "type": "Feature"}, {"geometry": {"type": "Point", "coordinates": [112.22526573697886, 32.20112102270278]}, "properties": {"name": "Xiangzhou District"}, "type": "Feature"}, {"geometry": {"type": "Point", "coordinates": [112.37084039841722, 31.660494382238383]}, "properties": {"name": "Yicheng"}, "type": "Feature"}, {"geometry": {"type": "Point", "coordinates": [112.75176260050341, 32.06086376573974]}, "properties": {"name": "Zaoyang"}, "type": "Feature"}]}