{"type": "FeatureCollection", "features": [{"geometry": {"type": "Point", "coordinates": [123.91221169831859, 47.16041151496222]}, "properties": {"name": "Ang'angxi District"}, "type": "Feature"}, {"geometry": {"type": "Point", "coordinates": [125.99054602651742, 47.6139205910141]}, "properties": {"name": "Baiquan County"}, "type": "Feature"}, {"geometry": {"type": "Point", "coordinates": [123.58077760803961, 47.22072067259624]}, "properties": {"name": "Fularji District"}, "type": "Feature"}, {"geometry": {"type": "Point", "coordinates": [124.52441622900503, 47.703079582931366]}, "properties": {"name": "Fuyu County"}, "type": "Feature"}, {"geometry": {"type": "Point", "coordinates": [123.87158811937591, 47.983246794351125]}, "properties": {"name": "Gannan County"}, "type": "Feature"}, {"geometry": {"type": "Point", "coordinates": [124.00270460507015, 47.3945887527985]}, "properties": {"name": "Jianhua District"}, "type": "Feature"}, {"geometry": {"type": "Point", "coordinates": [126.34576942383254, 48.02711180656721]}, "properties": {"name": "Kedong County"}, "type": "Feature"}, {"geometry": {"type": "Point", "coordinates": [125.69692851621599, 48.203660843973736]}, "properties": {"name": "Keshan County"}, "type": "Feature"}, {"geometry": {"type": "Point", "coordinates": [123.16419766685398, 47.23353758529805]}, "properties": {"name": "Longjiang County"}, "type": "Feature"}, {"geometry": {"type": "Point", "coordinates": [123.90951249573472, 47.27706950364591]}, "properties": {"name": "Lonza"}, "type": "Feature"}, {"geometry": {"type": "Point", "coordinates": [123.91291649820667, 47.54344668190204]}, "properties": {"name": "Meris Daur"}, "type": "Feature"}, {"geometry": {"type": "Point", "coordinates": [122.94262892985768, 47.57239377012302]}, "properties": {"name": "Nianzishan District"}, "type": "Feature"}, {"geometry": {"type": "Point", "coordinates": [123.61079709107813, 46.66746924875226]}, "properties": {"name": "Taylor County"}, "type": "Feature"}, {"geometry": {"type": "Point", "coordinates": [124.23874249447141, 47.285320251071454]}, "properties": {"name": "Tiefeng district"}, "type": "Feature"}, {"geometry": {"type": "Point", "coordinates": [125.29316544637727, 47.720713886692124]}, "properties": {"name": "Yian"}, "type": "Feature"}, {"geometry": {"type": "Point", "coordinates": [125.03902083103173, 48.490421829716006]}, "properties": {"name": "Nehe"}, "type": "Feature"}]}