{"type": "FeatureCollection", "features": [{"geometry": {"type": "Point", "coordinates": [128.4381398125646, 42.748532725045216]}, "properties": {"name": "Antu County"}, "type": "Feature"}, {"geometry": {"type": "Point", "coordinates": [128.2315640914173, 43.51827457697647]}, "properties": {"name": "Dunhua City"}, "type": "Feature"}, {"geometry": {"type": "Point", "coordinates": [128.90603470372153, 42.42974154258441]}, "properties": {"name": "City and Long"}, "type": "Feature"}, {"geometry": {"type": "Point", "coordinates": [129.42003648614573, 42.72060346408716]}, "properties": {"name": "Longjing"}, "type": "Feature"}, {"geometry": {"type": "Point", "coordinates": [129.88668414690895, 43.0317697677308]}, "properties": {"name": "Tumen City"}, "type": "Feature"}, {"geometry": {"type": "Point", "coordinates": [129.94180007212478, 43.55940780671594]}, "properties": {"name": "Wangqing County"}, "type": "Feature"}, {"geometry": {"type": "Point", "coordinates": [129.31659746224693, 43.146948374668256]}, "properties": {"name": "Yanji City"}, "type": "Feature"}, {"geometry": {"type": "Point", "coordinates": [130.6514542053182, 42.97019788240849]}, "properties": {"name": "Hunchun"}, "type": "Feature"}]}