{"type": "FeatureCollection", "features": [{"geometry": {"type": "Point", "coordinates": [120.7948518375498, 31.65684521680249]}, "properties": {"name": "Changshu"}, "type": "Feature"}, {"geometry": {"type": "Point", "coordinates": [120.46409856492886, 31.33050153495277]}, "properties": {"name": "Tiger Hill District"}, "type": "Feature"}, {"geometry": {"type": "Point", "coordinates": [120.94633742477247, 31.34549380192844]}, "properties": {"name": "Kunshan"}, "type": "Feature"}, {"geometry": {"type": "Point", "coordinates": [121.14528775950046, 31.51981439057736]}, "properties": {"name": "Taicang"}, "type": "Feature"}, {"geometry": {"type": "Point", "coordinates": [120.63170136118677, 31.003575093411854]}, "properties": {"name": "Wujiang District"}, "type": "Feature"}, {"geometry": {"type": "Point", "coordinates": [120.62126784550642, 31.463726892070824]}, "properties": {"name": "Xiangcheng"}, "type": "Feature"}, {"geometry": {"type": "Point", "coordinates": [120.63474873499761, 31.894316572333793]}, "properties": {"name": "Zhangjiagang"}, "type": "Feature"}, {"geometry": {"type": "Point", "coordinates": [120.48955697667925, 31.219051393831496]}, "properties": {"name": "Wuzhong District"}, "type": "Feature"}, {"geometry": {"type": "Point", "coordinates": [120.59514895823288, 31.320631841121806]}, "properties": {"name": "Suzhou area"}, "type": "Feature"}]}