{"type": "FeatureCollection", "features": [{"geometry": {"type": "Point", "coordinates": [119.47840295450618, 33.21635429387644]}, "properties": {"name": "Baoying County"}, "type": "Feature"}, {"geometry": {"type": "Point", "coordinates": [119.51940833756807, 32.82127555611308]}, "properties": {"name": "Gaoyou"}, "type": "Feature"}, {"geometry": {"type": "Point", "coordinates": [119.47866175798599, 32.40074779093762]}, "properties": {"name": "Guangling"}, "type": "Feature"}, {"geometry": {"type": "Point", "coordinates": [119.72033775534531, 32.57384533594267]}, "properties": {"name": "Jiangdu District"}, "type": "Feature"}, {"geometry": {"type": "Point", "coordinates": [119.19260628316376, 32.43510120923816]}, "properties": {"name": "Yizheng"}, "type": "Feature"}, {"geometry": {"type": "Point", "coordinates": [119.4687276091793, 32.39518800151472]}, "properties": {"name": "Hanjiang"}, "type": "Feature"}]}