{"type": "FeatureCollection", "features": [{"geometry": {"type": "Point", "coordinates": [119.49676150025606, 32.10730800887139]}, "properties": {"name": "Dantu"}, "type": "Feature"}, {"geometry": {"type": "Point", "coordinates": [119.65272046639224, 31.966070437621045]}, "properties": {"name": "Danyang City"}, "type": "Feature"}, {"geometry": {"type": "Point", "coordinates": [119.56848163483342, 32.19990583347366]}, "properties": {"name": "Jingkou District"}, "type": "Feature"}, {"geometry": {"type": "Point", "coordinates": [119.15842956471359, 31.92571986231416]}, "properties": {"name": "Jurong"}, "type": "Feature"}, {"geometry": {"type": "Point", "coordinates": [119.3857715822256, 32.161319587120076]}, "properties": {"name": "Runzhou"}, "type": "Feature"}, {"geometry": {"type": "Point", "coordinates": [119.82804858499392, 32.18553887545317]}, "properties": {"name": "Yangzhong"}, "type": "Feature"}]}