{"type": "FeatureCollection", "features": [{"geometry": {"type": "Point", "coordinates": [86.55724732379325, 48.428060225476614]}, "properties": {"name": "Habahe County"}, "type": "Feature"}, {"geometry": {"type": "Point", "coordinates": [87.32613102168808, 48.40033679998692]}, "properties": {"name": "Burqin County"}, "type": "Feature"}, {"geometry": {"type": "Point", "coordinates": [89.50944790936954, 46.959533346986724]}, "properties": {"name": "Fuyun County"}, "type": "Feature"}, {"geometry": {"type": "Point", "coordinates": [86.16493641265264, 47.445673257789714]}, "properties": {"name": "Jimunai County"}, "type": "Feature"}, {"geometry": {"type": "Point", "coordinates": [90.33283094288167, 46.48198292473175]}, "properties": {"name": "Green River County"}, "type": "Feature"}, {"geometry": {"type": "Point", "coordinates": [88.37441802219051, 47.21740476823812]}, "properties": {"name": "Fuhai County"}, "type": "Feature"}, {"geometry": {"type": "Point", "coordinates": [87.92394729131726, 47.88648992089257]}, "properties": {"name": "Altay"}, "type": "Feature"}]}