{"type": "FeatureCollection", "features": [{"geometry": {"type": "Point", "coordinates": [86.89366495209023, 41.89209765161958]}, "properties": {"name": "Bohu"}, "type": "Feature"}, {"geometry": {"type": "Point", "coordinates": [85.03650788549314, 42.8376561052805]}, "properties": {"name": "Hejing County"}, "type": "Feature"}, {"geometry": {"type": "Point", "coordinates": [87.50152836801966, 42.10638209482029]}, "properties": {"name": "And Shuo County"}, "type": "Feature"}, {"geometry": {"type": "Point", "coordinates": [85.79414108436119, 41.6372036423667]}, "properties": {"name": "Korla City"}, "type": "Feature"}, {"geometry": {"type": "Point", "coordinates": [84.52451181540681, 41.783144813237755]}, "properties": {"name": "Luntai County"}, "type": "Feature"}, {"geometry": {"type": "Point", "coordinates": [85.96880185731379, 37.09573835548499]}, "properties": {"name": "Qiemo County"}, "type": "Feature"}, {"geometry": {"type": "Point", "coordinates": [89.77641101741015, 38.0831669863283]}, "properties": {"name": "Ruoqiang County"}, "type": "Feature"}, {"geometry": {"type": "Point", "coordinates": [87.03859943043781, 41.21266888752629]}, "properties": {"name": "Yuli"}, "type": "Feature"}, {"geometry": {"type": "Point", "coordinates": [86.09948887021429, 42.11393467256355]}, "properties": {"name": "Yanqi Hui Autonomous County"}, "type": "Feature"}]}