{"type": "FeatureCollection", "features": [{"geometry": {"type": "Point", "coordinates": [87.66621372868228, 43.846020168321324]}, "properties": {"name": "Shuimogou District"}, "type": "Feature"}, {"geometry": {"type": "Point", "coordinates": [87.64511259074784, 43.70932184625322]}, "properties": {"name": "Tianshan District"}, "type": "Feature"}, {"geometry": {"type": "Point", "coordinates": [87.39887464676077, 43.91487148277448]}, "properties": {"name": "Toutunhe"}, "type": "Feature"}, {"geometry": {"type": "Point", "coordinates": [87.3903294897688, 43.53211866988597]}, "properties": {"name": "Urumqi County"}, "type": "Feature"}, {"geometry": {"type": "Point", "coordinates": [87.50156411673322, 43.8963912902518]}, "properties": {"name": "New urban"}, "type": "Feature"}, {"geometry": {"type": "Point", "coordinates": [88.03255479888237, 43.42333212741821]}, "properties": {"name": "Dabancheng area"}, "type": "Feature"}, {"geometry": {"type": "Point", "coordinates": [87.7455475220069, 44.09158451836772]}, "properties": {"name": "Midong"}, "type": "Feature"}, {"geometry": {"type": "Point", "coordinates": [87.4906358645977, 43.779986983450804]}, "properties": {"name": "Shayibake area"}, "type": "Feature"}]}