{"type": "FeatureCollection", "features": [{"geometry": {"type": "Point", "coordinates": [97.17538561036253, 28.689004425493735]}, "properties": {"name": "Chayu County"}, "type": "Feature"}, {"geometry": {"type": "Point", "coordinates": [93.23725072833354, 29.979350083288345]}, "properties": {"name": "Gongbo'gyamda"}, "type": "Feature"}, {"geometry": {"type": "Point", "coordinates": [95.56565143690477, 30.139528118567757]}, "properties": {"name": "Bomi County"}, "type": "Feature"}, {"geometry": {"type": "Point", "coordinates": [93.06417588375093, 28.977786025116963]}, "properties": {"name": "Long County"}, "type": "Feature"}, {"geometry": {"type": "Point", "coordinates": [94.35700232557492, 29.796262422714637]}, "properties": {"name": "Nyingchi County"}, "type": "Feature"}, {"geometry": {"type": "Point", "coordinates": [94.0820655002662, 29.29096563309104]}, "properties": {"name": "Mainling"}, "type": "Feature"}, {"geometry": {"type": "Point", "coordinates": [95.03148424035474, 28.8652311509759]}, "properties": {"name": "Medog County"}, "type": "Feature"}]}