{"type": "FeatureCollection", "features": [{"geometry": {"type": "Point", "coordinates": [94.52901918601833, 30.88235105796918]}, "properties": {"name": "Banbar County"}, "type": "Feature"}, {"geometry": {"type": "Point", "coordinates": [97.7879553256334, 30.580735028195228]}, "properties": {"name": "Chaya County"}, "type": "Feature"}, {"geometry": {"type": "Point", "coordinates": [97.2174010552368, 31.52497574408662]}, "properties": {"name": "Qamdo County"}, "type": "Feature"}, {"geometry": {"type": "Point", "coordinates": [95.3753950058068, 31.657929849944825]}, "properties": {"name": "Dengqen"}, "type": "Feature"}, {"geometry": {"type": "Point", "coordinates": [98.46456198454811, 30.76677668640758]}, "properties": {"name": "Gongjue County"}, "type": "Feature"}, {"geometry": {"type": "Point", "coordinates": [98.02201672083214, 31.762966184206697]}, "properties": {"name": "Jiang Daxian"}, "type": "Feature"}, {"geometry": {"type": "Point", "coordinates": [96.41923696305786, 31.39122213612364]}, "properties": {"name": "Riwoq\u00ea County"}, "type": "Feature"}, {"geometry": {"type": "Point", "coordinates": [95.96344210192974, 30.73368685080626]}, "properties": {"name": "Lhorong County"}, "type": "Feature"}, {"geometry": {"type": "Point", "coordinates": [96.86382429501472, 30.1365802809353]}, "properties": {"name": "Basu County"}, "type": "Feature"}, {"geometry": {"type": "Point", "coordinates": [98.54589070466923, 29.5658444093451]}, "properties": {"name": "Mangkang"}, "type": "Feature"}, {"geometry": {"type": "Point", "coordinates": [97.89410790345872, 29.502281341714585]}, "properties": {"name": "Zogang County"}, "type": "Feature"}]}