{"type": "FeatureCollection", "features": [{"geometry": {"type": "Point", "coordinates": [101.72318611903488, 33.77873466760483]}, "properties": {"name": "Maqu County"}, "type": "Feature"}, {"geometry": {"type": "Point", "coordinates": [103.50893692591771, 34.00169432031034]}, "properties": {"name": "Diebu"}, "type": "Feature"}, {"geometry": {"type": "Point", "coordinates": [103.06873431382934, 34.91412807889556]}, "properties": {"name": "Hezuo"}, "type": "Feature"}, {"geometry": {"type": "Point", "coordinates": [104.3701303545891, 33.59778425262598]}, "properties": {"name": "Zhouqu County"}, "type": "Feature"}, {"geometry": {"type": "Point", "coordinates": [103.44382162372362, 34.680946837078]}, "properties": {"name": "Zhuoni"}, "type": "Feature"}, {"geometry": {"type": "Point", "coordinates": [103.51854636801862, 34.75135313825478]}, "properties": {"name": "Lintan"}, "type": "Feature"}, {"geometry": {"type": "Point", "coordinates": [102.46716771178907, 34.38811987888151]}, "properties": {"name": "Luqu County"}, "type": "Feature"}, {"geometry": {"type": "Point", "coordinates": [102.46353296375017, 34.96124419481998]}, "properties": {"name": "Xiahe County"}, "type": "Feature"}]}