{"type": "FeatureCollection", "features": [{"geometry": {"type": "Point", "coordinates": [114.44670705605759, 35.675010848044444]}, "properties": {"name": "Xunxian"}, "type": "Feature"}, {"geometry": {"type": "Point", "coordinates": [114.17177984908042, 35.65858656034838]}, "properties": {"name": "Qi County"}, "type": "Feature"}, {"geometry": {"type": "Point", "coordinates": [114.22850555475715, 35.92338382658738]}, "properties": {"name": "Hill City"}, "type": "Feature"}, {"geometry": {"type": "Point", "coordinates": [114.2062302491627, 35.800261291842936]}, "properties": {"name": "Qibin"}, "type": "Feature"}, {"geometry": {"type": "Point", "coordinates": [114.13826513081472, 35.98559836676467]}, "properties": {"name": "Heshan District"}, "type": "Feature"}]}