{"type": "FeatureCollection", "features": [{"geometry": {"type": "Point", "coordinates": [113.226126, 35.241353]}, "properties": {"name": "Liberated"}, "type": "Feature"}, {"geometry": {"type": "Point", "coordinates": [113.175485, 35.236145]}, "properties": {"name": "The station area"}, "type": "Feature"}, {"geometry": {"type": "Point", "coordinates": [113.321703, 35.265453]}, "properties": {"name": "Ma Village District"}, "type": "Feature"}, {"geometry": {"type": "Point", "coordinates": [113.26766, 35.21476]}, "properties": {"name": "Sanyo area"}, "type": "Feature"}, {"geometry": {"type": "Point", "coordinates": [113.447465, 35.229923]}, "properties": {"name": "Xiuwu County"}, "type": "Feature"}, {"geometry": {"type": "Point", "coordinates": [113.069313, 35.170351]}, "properties": {"name": "Fraternity County"}, "type": "Feature"}, {"geometry": {"type": "Point", "coordinates": [113.408334, 35.09885]}, "properties": {"name": "Wuzhi County"}, "type": "Feature"}, {"geometry": {"type": "Point", "coordinates": [113.079118, 34.941233]}, "properties": {"name": "Wenxian"}, "type": "Feature"}, {"geometry": {"type": "Point", "coordinates": [112.934538, 35.08901]}, "properties": {"name": "Qinyang"}, "type": "Feature"}, {"geometry": {"type": "Point", "coordinates": [112.78708, 34.90963]}, "properties": {"name": "Mengzhou"}, "type": "Feature"}]}