{"type": "FeatureCollection", "features": [{"geometry": {"type": "Point", "coordinates": [112.57844608979383, 34.90771297283658]}, "properties": {"name": "Jili District"}, "type": "Feature"}, {"geometry": {"type": "Point", "coordinates": [111.53032151592866, 34.384781325472574]}, "properties": {"name": "Luoning County"}, "type": "Feature"}, {"geometry": {"type": "Point", "coordinates": [112.51010245895995, 34.80847298355747]}, "properties": {"name": "Mengjin County"}, "type": "Feature"}, {"geometry": {"type": "Point", "coordinates": [112.42662881788218, 34.08181280019692]}, "properties": {"name": "Ruyang County"}, "type": "Feature"}, {"geometry": {"type": "Point", "coordinates": [112.11039725914627, 34.816208291016615]}, "properties": {"name": "Xin'an County"}, "type": "Feature"}, {"geometry": {"type": "Point", "coordinates": [112.46473112944918, 34.39253580065887]}, "properties": {"name": "Yichuan County"}, "type": "Feature"}, {"geometry": {"type": "Point", "coordinates": [112.06062219761652, 34.522160596831064]}, "properties": {"name": "Yiyang County"}, "type": "Feature"}, {"geometry": {"type": "Point", "coordinates": [112.73947490093714, 34.62692947939591]}, "properties": {"name": "Yanshi"}, "type": "Feature"}, {"geometry": {"type": "Point", "coordinates": [112.05117069032353, 33.96754696007438]}, "properties": {"name": "Song County"}, "type": "Feature"}, {"geometry": {"type": "Point", "coordinates": [111.62512685610545, 33.913868262361966]}, "properties": {"name": "Luanchuan"}, "type": "Feature"}, {"geometry": {"type": "Point", "coordinates": [112.44694219078494, 34.642573211321]}, "properties": {"name": "Luolong"}, "type": "Feature"}, {"geometry": {"type": "Point", "coordinates": [112.50713407582546, 34.709001593601315]}, "properties": {"name": "Chanhe Hui District"}, "type": "Feature"}, {"geometry": {"type": "Point", "coordinates": [112.44095465652971, 34.71280234378383]}, "properties": {"name": "old Town"}, "type": "Feature"}, {"geometry": {"type": "Point", "coordinates": [112.3762169666557, 34.69455087236383]}, "properties": {"name": "Xigong"}, "type": "Feature"}, {"geometry": {"type": "Point", "coordinates": [112.36534748293909, 34.66265714076322]}, "properties": {"name": "Jianxi District"}, "type": "Feature"}]}