{"type": "FeatureCollection", "features": [{"geometry": {"type": "Point", "coordinates": [111.27710519839972, 34.765384007144974]}, "properties": {"name": "Lakeshore"}, "type": "Feature"}, {"geometry": {"type": "Point", "coordinates": [110.80232930357403, 34.42938525953651]}, "properties": {"name": "Lingbao"}, "type": "Feature"}, {"geometry": {"type": "Point", "coordinates": [110.98079065415494, 34.005598321341374]}, "properties": {"name": "Romer County"}, "type": "Feature"}, {"geometry": {"type": "Point", "coordinates": [111.38417596391268, 34.65647145757907]}, "properties": {"name": "Shan County"}, "type": "Feature"}, {"geometry": {"type": "Point", "coordinates": [111.9243056637791, 34.73555260913951]}, "properties": {"name": "Yima City"}, "type": "Feature"}, {"geometry": {"type": "Point", "coordinates": [111.80634863863781, 34.80588225967234]}, "properties": {"name": "Mianchi County"}, "type": "Feature"}]}