{"type": "FeatureCollection", "features": [{"geometry": {"type": "Point", "coordinates": [115.12545992469383, 34.69729672744929]}, "properties": {"name": "Citizens County"}, "type": "Feature"}, {"geometry": {"type": "Point", "coordinates": [115.26957617652866, 34.44114550141436]}, "properties": {"name": "Ningling"}, "type": "Feature"}, {"geometry": {"type": "Point", "coordinates": [116.16445820555158, 34.181324112301326]}, "properties": {"name": "Xiayi"}, "type": "Feature"}, {"geometry": {"type": "Point", "coordinates": [116.30012794849455, 33.97575045945711]}, "properties": {"name": "Wing City"}, "type": "Feature"}, {"geometry": {"type": "Point", "coordinates": [115.8794269645047, 34.360489857820525]}, "properties": {"name": "Yucheng County"}, "type": "Feature"}, {"geometry": {"type": "Point", "coordinates": [115.2472962637633, 34.05789437846569]}, "properties": {"name": "Zhecheng"}, "type": "Feature"}, {"geometry": {"type": "Point", "coordinates": [115.03789927295986, 34.40529161220261]}, "properties": {"name": "Sui"}, "type": "Feature"}, {"geometry": {"type": "Point", "coordinates": [115.638547874415, 34.487577788401914]}, "properties": {"name": "Liangyuan"}, "type": "Feature"}, {"geometry": {"type": "Point", "coordinates": [115.55663147195592, 34.24464900297638]}, "properties": {"name": "Suiyang District"}, "type": "Feature"}]}