{"type": "FeatureCollection", "features": [{"geometry": {"type": "Point", "coordinates": [113.88474965120689, 35.328379155999706]}, "properties": {"name": "Makino District"}, "type": "Feature"}, {"geometry": {"type": "Point", "coordinates": [113.84810844515384, 35.27480822124093]}, "properties": {"name": "Weibin District"}, "type": "Feature"}, {"geometry": {"type": "Point", "coordinates": [114.78362025502253, 35.20629119850627]}, "properties": {"name": "Changyuan"}, "type": "Feature"}, {"geometry": {"type": "Point", "coordinates": [114.4484432211665, 35.03926875551676]}, "properties": {"name": "Fengqiu County"}, "type": "Feature"}, {"geometry": {"type": "Point", "coordinates": [113.6442645566883, 35.55693154842448]}, "properties": {"name": "Huixian"}, "type": "Feature"}, {"geometry": {"type": "Point", "coordinates": [113.64936837823085, 35.17962363024365]}, "properties": {"name": "Walker County"}, "type": "Feature"}, {"geometry": {"type": "Point", "coordinates": [114.04832335249932, 35.50426185838161]}, "properties": {"name": "Weihui"}, "type": "Feature"}, {"geometry": {"type": "Point", "coordinates": [114.22747594447321, 35.29022410970462]}, "properties": {"name": "Yanjin County"}, "type": "Feature"}, {"geometry": {"type": "Point", "coordinates": [113.93681457392998, 35.03461532963935]}, "properties": {"name": "Yuanyang County"}, "type": "Feature"}, {"geometry": {"type": "Point", "coordinates": [113.91558022482536, 35.27385028068889]}, "properties": {"name": "Red zone"}, "type": "Feature"}, {"geometry": {"type": "Point", "coordinates": [113.85586111166747, 35.391752914078126]}, "properties": {"name": "Fung-chuen"}, "type": "Feature"}, {"geometry": {"type": "Point", "coordinates": [113.82945006822752, 35.239767178469066]}, "properties": {"name": "Xinxiang County"}, "type": "Feature"}]}