{"type": "FeatureCollection", "features": [{"geometry": {"type": "Point", "coordinates": [113.0204576441733, 34.42100970521639]}, "properties": {"name": "Dengfeng City"}, "type": "Feature"}, {"geometry": {"type": "Point", "coordinates": [113.58146352006732, 34.67770037452887]}, "properties": {"name": "Erqi"}, "type": "Feature"}, {"geometry": {"type": "Point", "coordinates": [113.04741407569034, 34.711580710921346]}, "properties": {"name": "Gongyi City"}, "type": "Feature"}, {"geometry": {"type": "Point", "coordinates": [113.75108846114986, 34.702660035756]}, "properties": {"name": "Guancheng Hui District"}, "type": "Feature"}, {"geometry": {"type": "Point", "coordinates": [113.62882259650294, 34.88430881855878]}, "properties": {"name": "Huiji"}, "type": "Feature"}, {"geometry": {"type": "Point", "coordinates": [113.74380308819498, 34.80392847492433]}, "properties": {"name": "Jinshui"}, "type": "Feature"}, {"geometry": {"type": "Point", "coordinates": [113.29127064711624, 34.81549291744518]}, "properties": {"name": "On the street"}, "type": "Feature"}, {"geometry": {"type": "Point", "coordinates": [113.44627142229079, 34.51660467678669]}, "properties": {"name": "Xinmi City"}, "type": "Feature"}, {"geometry": {"type": "Point", "coordinates": [113.67777267239443, 34.467576928466144]}, "properties": {"name": "Xinzheng City"}, "type": "Feature"}, {"geometry": {"type": "Point", "coordinates": [113.99904100802097, 34.70384886160753]}, "properties": {"name": "Zhongmou County"}, "type": "Feature"}, {"geometry": {"type": "Point", "coordinates": [113.53115210273299, 34.785887073988526]}, "properties": {"name": "Zhongyuan District"}, "type": "Feature"}, {"geometry": {"type": "Point", "coordinates": [113.32986187560002, 34.776741835458346]}, "properties": {"name": "Xingyang"}, "type": "Feature"}]}