{"features": [{
"geometry": {"coordinates": [109.3291, 19.5653], "type": "Point"}, "properties": {"name": "Danzhou City"}, "type": "Feature"}, {
"geometry": {"coordinates": [110.8905, 19.7823], "type": "Point"}, "properties": {"name": "Wenchang City"}, "type": "Feature"}, {
"geometry": {"coordinates": [109.0283, 18.6301], "type": "Point"}, "properties": {"name": "Ledong Li Autonomous County"}, "type": "Feature"}, {
"geometry": {"coordinates": [109.3716, 18.3698], "type": "Point"}, "properties": {"name": "Sanya City"}, "type": "Feature"}, {
"geometry": {"coordinates": [109.8413, 19.0736], "type": "Point"}, "properties": {"name": "Qiongzhong Li and Miao Autonomous County"}, "type": "Feature"} , {
"geometry": {"coordinates": [108.8498, 19.0414], "type": "Point"}, "properties": {"name": "Dongfang City"}, "type": "Feature"}, {
"geometry": {"coordinates": [110.3893, 19.8516], "type": "Point"}, "properties": {"name": "Haikou City"}, "type": "Feature"}, {
"geometry": {"coordinates": [110.3137, 18.8388], "type": "Point"}, "properties": {"name": "Wanning City"}, "type": "Feature"}, {
"geometry": {"coordinates": [109.9937, 19.7314], "type": "Point"}, "properties": {"name": "Chengmai County"}, "type": "Feature"}, {
"geometry": {"coordinates": [109.3703, 19.211], "type": "Point"}, "properties": {"name": "Baisha Li Autonomous County"}, "type": "Feature"}, {
"geometry": {"coordinates": [110.4208, 19.224], "type": "Point"}, "properties": {"name": "Qionghai City"}, "type": "Feature"}, {
"geometry": {"coordinates": [109.0407, 19.2137], "type": "Point"}, "properties": {"name": "Changjiang Li Autonomous County"}, "type": "Feature"}, {
"geometry": {"coordinates": [109.6957, 19.8063], "type": "Point"}, "properties": {"name": "Lin'gao County"}, "type": "Feature"}, {
"geometry": {"coordinates": [109.9924, 18.5415], "type": "Point"}, "properties": {"name": "Lingshui Li Autonomous County"}, "type": "Feature"}, {
"geometry": {"coordinates": [110.0377, 19.362], "type": "Point"}, "properties": {"name": "Tunchang County"}, "type": "Feature"}, {
"geometry": {"coordinates": [110.3384, 19.4698], "type": "Point"}, "properties": {"name": "Ding'an County"}, "type": "Feature"}, {
"geometry": {"coordinates": [109.6284, 18.6108], "type": "Point"}, "properties": {"name": "Baoting Li and Miao Autonomous County"}, "type": "Feature"} , {
"geometry": {"coordinates": [109.5282, 18.8299], "type": "Point"}, "properties": {"name": "Wuzhishan City"}, "type": "Feature"}, {
"geometry": {"coordinates": [112.33245849609375, 16.809799590706195], "type": "Point"}, "properties": {"name": "Sansha City"}, "type": "Feature"}], " Type": "FeatureCollection"}