{"features": [{
"geometry": {"coordinates": [122.2229, 39.4409], "type": "Point"}, "properties": {"name": "Dalian City"}, "type": "Feature"}, {
"geometry": {"coordinates": [120.0696, 41.4899], "type": "Point"}, "properties": {"name": "Chaoyang City"}, "type": "Feature"}, {
"geometry": {"coordinates": [124.541, 40.4242], "type": "Point"}, "properties": {"name": "Dandong City"}, "type": "Feature"}, {
"geometry": {"coordinates": [124.2773, 42.7423], "type": "Point"}, "properties": {"name": "Tieling City"}, "type": "Feature"}, {
"geometry": {"coordinates": [123.1238, 42.1216], "type": "Point"}, "properties": {"name": "Shenyang City"}, "type": "Feature"}, {
"geometry": {"coordinates": [124.585, 41.8579], "type": "Point"}, "properties": {"name": "Fushun City"}, "type": "Feature"}, {
"geometry": {"coordinates": [120.1575, 40.578], "type": "Point"}, "properties": {"name": "Huludao City"}, "type": "Feature"}, {
"geometry": {"coordinates": [122.0032, 42.2699], "type": "Point"}, "properties": {"name": "Fuxin City"}, "type": "Feature"}, {
"geometry": {"coordinates": [121.6626, 41.4294], "type": "Point"}, "properties": {"name": "Jinzhou City"}, "type": "Feature"}, {
"geometry": {"coordinates": [123.0798, 40.6055], "type": "Point"}, "properties": {"name": "Anshan City"}, "type": "Feature"}, {
"geometry": {"coordinates": [124.1455, 41.1987], "type": "Point"}, "properties": {"name": "Benxi City"}, "type": "Feature"}, {
"geometry": {"coordinates": [122.4316, 40.4297], "type": "Point"}, "properties": {"name": "Yingkou City"}, "type": "Feature"}, {
"geometry": {"coordinates": [123.4094, 41.1383], "type": "Point"}, "properties": {"name": "Liaoyang City"}, "type": "Feature"}, {
"geometry": {"coordinates": [121.9482, 41.0449], "type": "Point"}, "properties": {"name": "Panjin City"}, "type": "Feature"}], " Type": "FeatureCollection"}