{"type": "FeatureCollection", "features": [{"geometry": {"type": "Point", "coordinates": [113.33581317392942, 23.09302508377768]}, "properties": {"name": "Haizhu"}, "type": "Feature"}, {"geometry": {"type": "Point", "coordinates": [113.39538012786332, 22.930445437555672]}, "properties": {"name": "Panyu District"}, "type": "Feature"}, {"geometry": {"type": "Point", "coordinates": [113.34506080470054, 23.289604575087665]}, "properties": {"name": "Baiyun District"}, "type": "Feature"}, {"geometry": {"type": "Point", "coordinates": [113.67163415373354, 23.68958826362441]}, "properties": {"name": "Conghua City"}, "type": "Feature"}, {"geometry": {"type": "Point", "coordinates": [113.16248335952888, 23.4287551428861]}, "properties": {"name": "Huadu District"}, "type": "Feature"}, {"geometry": {"type": "Point", "coordinates": [113.49188826378337, 23.10756489913587]}, "properties": {"name": "Huangpu District"}, "type": "Feature"}, {"geometry": {"type": "Point", "coordinates": [113.22685721186231, 23.107750361246243]}, "properties": {"name": "Liwan District"}, "type": "Feature"}, {"geometry": {"type": "Point", "coordinates": [113.49441457801625, 23.22183543503478]}, "properties": {"name": "Luogang District"}, "type": "Feature"}, {"geometry": {"type": "Point", "coordinates": [113.58160425741993, 22.712403795173568]}, "properties": {"name": "Nansha District"}, "type": "Feature"}, {"geometry": {"type": "Point", "coordinates": [113.38929373610306, 23.172161149679425]}, "properties": {"name": "Tianhe District"}, "type": "Feature"}, {"geometry": {"type": "Point", "coordinates": [113.26713278952796, 23.144131791070443]}, "properties": {"name": "Yuexiu District"}, "type": "Feature"}, {"geometry": {"type": "Point", "coordinates": [113.75296088755778, 23.318696627488453]}, "properties": {"name": "Zengcheng"}, "type": "Feature"}]}