{"type": "FeatureCollection", "features": [{"geometry": {"type": "Point", "coordinates": [114.30378121040172, 23.384969413888715]}, "properties": {"name": "Boluo"}, "type": "Feature"}, {"geometry": {"type": "Point", "coordinates": [114.46083404137957, 23.159145903541102]}, "properties": {"name": "Hui District"}, "type": "Feature"}, {"geometry": {"type": "Point", "coordinates": [114.90959930258255, 22.914582800593763]}, "properties": {"name": "Huidong County"}, "type": "Feature"}, {"geometry": {"type": "Point", "coordinates": [114.514486587303, 22.785706222079998]}, "properties": {"name": "Huiyang District"}, "type": "Feature"}, {"geometry": {"type": "Point", "coordinates": [114.13919176168976, 23.6904082852994]}, "properties": {"name": "Longmen County"}, "type": "Feature"}]}