{"type": "FeatureCollection", "features": [{"geometry": {"type": "Point", "coordinates": [116.23522005945591, 23.888830360853873]}, "properties": {"name": "Fengshun County"}, "type": "Feature"}, {"geometry": {"type": "Point", "coordinates": [116.21684898416687, 24.709755245999883]}, "properties": {"name": "JiaoLing"}, "type": "Feature"}, {"geometry": {"type": "Point", "coordinates": [116.11123091202063, 24.27577937250118]}, "properties": {"name": "Meijiang District"}, "type": "Feature"}, {"geometry": {"type": "Point", "coordinates": [116.15221542634367, 24.351839026687067]}, "properties": {"name": "Meixian"}, "type": "Feature"}, {"geometry": {"type": "Point", "coordinates": [116.67308279572498, 24.343519905092073]}, "properties": {"name": "Dapu County"}, "type": "Feature"}, {"geometry": {"type": "Point", "coordinates": [115.92308512797356, 24.696019820972637]}, "properties": {"name": "Pingyuan"}, "type": "Feature"}, {"geometry": {"type": "Point", "coordinates": [115.59874410025702, 23.79918412433354]}, "properties": {"name": "Wuhua"}, "type": "Feature"}, {"geometry": {"type": "Point", "coordinates": [115.7743761156237, 24.228964227557018]}, "properties": {"name": "Xingning City"}, "type": "Feature"}]}