{"type": "FeatureCollection", "features": [{"geometry": {"type": "Point", "coordinates": [113.55936267705427, 23.885556719540485]}, "properties": {"name": "Fogang"}, "type": "Feature"}, {"geometry": {"type": "Point", "coordinates": [112.28408517665245, 24.560711801348344]}, "properties": {"name": "Even the South Yao Autonomous County"}, "type": "Feature"}, {"geometry": {"type": "Point", "coordinates": [112.09551320189773, 24.515305386226622]}, "properties": {"name": "Hill Zhuang Yao Autonomous County"}, "type": "Feature"}, {"geometry": {"type": "Point", "coordinates": [112.4328172830179, 24.89824237370497]}, "properties": {"name": "Lianzhou"}, "type": "Feature"}, {"geometry": {"type": "Point", "coordinates": [113.13424796910874, 23.642617368067093]}, "properties": {"name": "Qing City"}, "type": "Feature"}, {"geometry": {"type": "Point", "coordinates": [112.91251181080223, 23.88430288951041]}, "properties": {"name": "Qingxin"}, "type": "Feature"}, {"geometry": {"type": "Point", "coordinates": [112.68101412849686, 24.477710773284873]}, "properties": {"name": "Yangshan County"}, "type": "Feature"}, {"geometry": {"type": "Point", "coordinates": [113.35905641857325, 24.245257567682486]}, "properties": {"name": "Yingde City"}, "type": "Feature"}]}