{"type": "FeatureCollection", "features": [{"geometry": {"type": "Point", "coordinates": [115.65331039664154, 32.6519128629532]}, "properties": {"name": "Funan"}, "type": "Feature"}, {"geometry": {"type": "Point", "coordinates": [115.39056992729894, 33.237102662022124]}, "properties": {"name": "Jieshou"}, "type": "Feature"}, {"geometry": {"type": "Point", "coordinates": [115.20356552670961, 32.890640546054044]}, "properties": {"name": "Linquan"}, "type": "Feature"}, {"geometry": {"type": "Point", "coordinates": [115.62297007340013, 33.30713836411507]}, "properties": {"name": "Taihe County"}, "type": "Feature"}, {"geometry": {"type": "Point", "coordinates": [116.02211796768628, 32.92783632641631]}, "properties": {"name": "Ying Eastern"}, "type": "Feature"}, {"geometry": {"type": "Point", "coordinates": [115.74886010499849, 33.037923556857365]}, "properties": {"name": "Yingquan"}, "type": "Feature"}, {"geometry": {"type": "Point", "coordinates": [116.26324617662003, 32.67949435215942]}, "properties": {"name": "Yingshang County"}, "type": "Feature"}, {"geometry": {"type": "Point", "coordinates": [115.72184625033456, 32.872457217068266]}, "properties": {"name": "Yingzhou"}, "type": "Feature"}]}