{"type": "FeatureCollection", "features": [{"geometry": {"type": "Point", "coordinates": [116.82780664052541, 32.64547318608489]}, "properties": {"name": "Bagongshan District"}, "type": "Feature"}, {"geometry": {"type": "Point", "coordinates": [117.11466782786589, 32.669003643179586]}, "properties": {"name": "Odori District"}, "type": "Feature"}, {"geometry": {"type": "Point", "coordinates": [116.59378215179878, 32.76788627351707]}, "properties": {"name": "Fengtai County"}, "type": "Feature"}, {"geometry": {"type": "Point", "coordinates": [116.85391395881285, 32.76346154688491]}, "properties": {"name": "Panji District"}, "type": "Feature"}, {"geometry": {"type": "Point", "coordinates": [116.98831682129736, 32.639148488376044]}, "properties": {"name": "Tianjia'an District"}, "type": "Feature"}, {"geometry": {"type": "Point", "coordinates": [116.86767097338915, 32.61740661099609]}, "properties": {"name": "Xiejiaji District"}, "type": "Feature"}]}