{"type": "FeatureCollection", "features": [{"geometry": {"type": "Point", "coordinates": [118.66329938444643, 31.537441897553066]}, "properties": {"name": "Dangtu County"}, "type": "Feature"}, {"geometry": {"type": "Point", "coordinates": [118.04348416963501, 31.66680851459631]}, "properties": {"name": "Hanshan County"}, "type": "Feature"}, {"geometry": {"type": "Point", "coordinates": [118.28348626165727, 31.7406128002815]}, "properties": {"name": "County"}, "type": "Feature"}, {"geometry": {"type": "Point", "coordinates": [118.55134431569783, 31.641631151792307]}, "properties": {"name": "Mountain rain"}, "type": "Feature"}, {"geometry": {"type": "Point", "coordinates": [118.54846246344641, 31.724463316707677]}, "properties": {"name": "Huashan District"}, "type": "Feature"}]}