{"type": "FeatureCollection", "features": [{"geometry": {"type": "Point", "coordinates": [117.13770743821237, 33.67434726765257]}, "properties": {"name": "Yong Bridge District"}, "type": "Feature"}, {"geometry": {"type": "Point", "coordinates": [117.52888827856135, 33.710242852477656]}, "properties": {"name": "Lingbi"}, "type": "Feature"}, {"geometry": {"type": "Point", "coordinates": [116.85298581496819, 34.17523944817204]}, "properties": {"name": "Xiaoxian"}, "type": "Feature"}, {"geometry": {"type": "Point", "coordinates": [117.84726328966491, 33.51505315773058]}, "properties": {"name": "Sixian"}, "type": "Feature"}, {"geometry": {"type": "Point", "coordinates": [116.41241078890565, 34.45324371107476]}, "properties": {"name": "Dangshan County"}, "type": "Feature"}]}