{"type": "FeatureCollection", "features": [{"geometry": {"type": "Point", "coordinates": [117.326361676038, 27.65555367704075]}, "properties": {"name": "WINNER"}, "type": "Feature"}, {"geometry": {"type": "Point", "coordinates": [118.12322479839729, 27.417864517322116]}, "properties": {"name": "Jianyang"}, "type": "Feature"}, {"geometry": {"type": "Point", "coordinates": [118.4122353714395, 27.016936789394368]}, "properties": {"name": "Jian'ou"}, "type": "Feature"}, {"geometry": {"type": "Point", "coordinates": [118.49110295696498, 27.93833279716954]}, "properties": {"name": "Pucheng County"}, "type": "Feature"}, {"geometry": {"type": "Point", "coordinates": [117.4479157417007, 27.210347322696666]}, "properties": {"name": "Shaowu"}, "type": "Feature"}, {"geometry": {"type": "Point", "coordinates": [117.84437840963743, 26.908858684540753]}, "properties": {"name": "Shunchang County"}, "type": "Feature"}, {"geometry": {"type": "Point", "coordinates": [118.7674661621737, 27.598478722401772]}, "properties": {"name": "Songxi County"}, "type": "Feature"}, {"geometry": {"type": "Point", "coordinates": [118.0302660159476, 27.776995988677495]}, "properties": {"name": "Wuyishan City"}, "type": "Feature"}, {"geometry": {"type": "Point", "coordinates": [118.28563716388993, 26.563193734312847]}, "properties": {"name": "Yanping"}, "type": "Feature"}, {"geometry": {"type": "Point", "coordinates": [118.94075055788147, 27.337554995613864]}, "properties": {"name": "Zhenghe County"}, "type": "Feature"}]}