{"type": "FeatureCollection", "features": [{"geometry": {"type": "Point", "coordinates": [118.87545764978789, 25.1652122609002]}, "properties": {"name": "Quangang"}, "type": "Feature"}, {"geometry": {"type": "Point", "coordinates": [118.68365513936737, 24.753658722858145]}, "properties": {"name": "Shishi"}, "type": "Feature"}, {"geometry": {"type": "Point", "coordinates": [117.89111612855989, 25.08277778500575]}, "properties": {"name": "Anxi County"}, "type": "Feature"}, {"geometry": {"type": "Point", "coordinates": [118.23678020191399, 25.707382309704343]}, "properties": {"name": "Dehua"}, "type": "Feature"}, {"geometry": {"type": "Point", "coordinates": [118.61490314413535, 24.925628392913247]}, "properties": {"name": "Fortress"}, "type": "Feature"}, {"geometry": {"type": "Point", "coordinates": [118.85333078094236, 24.993782767579017]}, "properties": {"name": "Hui'an County"}, "type": "Feature"}, {"geometry": {"type": "Point", "coordinates": [118.34614483407593, 24.45107418110524]}, "properties": {"name": "Kinmen County"}, "type": "Feature"}, {"geometry": {"type": "Point", "coordinates": [118.57427359183338, 24.71405478076098]}, "properties": {"name": "Jinjiang"}, "type": "Feature"}, {"geometry": {"type": "Point", "coordinates": [118.55051237088722, 24.912064845692434]}, "properties": {"name": "Licheng District"}, "type": "Feature"}, {"geometry": {"type": "Point", "coordinates": [118.63316930216304, 25.134303377870854]}, "properties": {"name": "Luojiang District"}, "type": "Feature"}, {"geometry": {"type": "Point", "coordinates": [118.3452633638159, 25.0324145904426]}, "properties": {"name": "Nanan City"}, "type": "Feature"}, {"geometry": {"type": "Point", "coordinates": [118.1609966441931, 25.378043292960587]}, "properties": {"name": "Yongchun County"}, "type": "Feature"}]}