{"type": "FeatureCollection", "features": [{"geometry": {"type": "Point", "coordinates": [110.292445, 25.278544]}, "properties": {"name": "Xiufeng District"}, "type": "Feature"}, {"geometry": {"type": "Point", "coordinates": [110.300783, 25.301334]}, "properties": {"name": "Diecai District"}, "type": "Feature"}, {"geometry": {"type": "Point", "coordinates": [110.284882, 25.261986]}, "properties": {"name": "Xiangshan District"}, "type": "Feature"}, {"geometry": {"type": "Point", "coordinates": [110.317577, 25.254339]}, "properties": {"name": "Qixing District"}, "type": "Feature"}, {"geometry": {"type": "Point", "coordinates": [110.305667, 25.077646]}, "properties": {"name": "Yanshan"}, "type": "Feature"}, {"geometry": {"type": "Point", "coordinates": [110.205487, 25.246257]}, "properties": {"name": "Lingui District"}, "type": "Feature"}, {"geometry": {"type": "Point", "coordinates": [110.494699, 24.77534]}, "properties": {"name": "Yangshuo County"}, "type": "Feature"}, {"geometry": {"type": "Point", "coordinates": [110.325712, 25.408541]}, "properties": {"name": "Lingchuan County"}, "type": "Feature"}, {"geometry": {"type": "Point", "coordinates": [111.072989, 25.929897]}, "properties": {"name": "Quanzhou County"}, "type": "Feature"}, {"geometry": {"type": "Point", "coordinates": [110.670783, 25.609554]}, "properties": {"name": "Xing'an County"}, "type": "Feature"}, {"geometry": {"type": "Point", "coordinates": [109.989208, 24.986692]}, "properties": {"name": "Yongfu County"}, "type": "Feature"}, {"geometry": {"type": "Point", "coordinates": [111.160248, 25.489098]}, "properties": {"name": "Irrigation County"}, "type": "Feature"}, {"geometry": {"type": "Point", "coordinates": [110.009423, 25.796428]}, "properties": {"name": "Longsheng County"}, "type": "Feature"}, {"geometry": {"type": "Point", "coordinates": [110.642587, 26.0342]}, "properties": {"name": "Ziyuan County"}, "type": "Feature"}, {"geometry": {"type": "Point", "coordinates": [110.642821, 24.632216]}, "properties": {"name": "Pingle County"}, "type": "Feature"}, {"geometry": {"type": "Point", "coordinates": [110.400149, 24.497786]}, "properties": {"name": "Lipu County"}, "type": "Feature"}, {"geometry": {"type": "Point", "coordinates": [110.82952, 24.833612]}, "properties": {"name": "Gongcheng Yao Autonomous County"}, "type": "Feature"}]}