{"type": "FeatureCollection", "features": [{"geometry": {"type": "Point", "coordinates": [110.45878868143663, 33.672280640231925]}, "properties": {"name": "Danfeng County"}, "type": "Feature"}, {"geometry": {"type": "Point", "coordinates": [110.20783852144216, 34.171451517391375]}, "properties": {"name": "Luonan County"}, "type": "Feature"}, {"geometry": {"type": "Point", "coordinates": [110.02534698995196, 33.41372651118969]}, "properties": {"name": "Hill County"}, "type": "Feature"}, {"geometry": {"type": "Point", "coordinates": [110.68504857270224, 33.384426500113776]}, "properties": {"name": "Shangnan County"}, "type": "Feature"}, {"geometry": {"type": "Point", "coordinates": [109.8462629431277, 33.88286660460517]}, "properties": {"name": "Shangzhou District"}, "type": "Feature"}, {"geometry": {"type": "Point", "coordinates": [109.1101693964391, 33.359566430436686]}, "properties": {"name": "County town"}, "type": "Feature"}, {"geometry": {"type": "Point", "coordinates": [109.25921921357768, 33.69753592790385]}, "properties": {"name": "Zhashui"}, "type": "Feature"}]}