{"type": "FeatureCollection", "features": [{"geometry": {"type": "Point", "coordinates": [108.9517515743162, 34.24781641962033]}, "properties": {"name": "Beilin"}, "type": "Feature"}, {"geometry": {"type": "Point", "coordinates": [108.89612019144232, 34.039375100099]}, "properties": {"name": "Chang'an District"}, "type": "Feature"}, {"geometry": {"type": "Point", "coordinates": [109.05832577424847, 34.48245806529755]}, "properties": {"name": "Gaoling"}, "type": "Feature"}, {"geometry": {"type": "Point", "coordinates": [108.62795023696589, 33.99397361238764]}, "properties": {"name": "Hu County"}, "type": "Feature"}, {"geometry": {"type": "Point", "coordinates": [109.44324259177458, 34.12464970687374]}, "properties": {"name": "Lantian County"}, "type": "Feature"}, {"geometry": {"type": "Point", "coordinates": [108.90222232689666, 34.27033259849035]}, "properties": {"name": "Lianhu District"}, "type": "Feature"}, {"geometry": {"type": "Point", "coordinates": [109.28071471497941, 34.46697422174412]}, "properties": {"name": "Lintong District"}, "type": "Feature"}, {"geometry": {"type": "Point", "coordinates": [108.90948143296882, 34.335535992292954]}, "properties": {"name": "Weiyang"}, "type": "Feature"}, {"geometry": {"type": "Point", "coordinates": [108.99430617700486, 34.27060011960624]}, "properties": {"name": "New town area"}, "type": "Feature"}, {"geometry": {"type": "Point", "coordinates": [109.29637891771577, 34.673915940653]}, "properties": {"name": "Yanliang District"}, "type": "Feature"}, {"geometry": {"type": "Point", "coordinates": [108.93082144575114, 34.21275393102443]}, "properties": {"name": "Yanta District"}, "type": "Feature"}, {"geometry": {"type": "Point", "coordinates": [108.08176291164756, 33.95132372000246]}, "properties": {"name": "Zhouzhi County"}, "type": "Feature"}, {"geometry": {"type": "Point", "coordinates": [109.12216455942524, 34.29995530730057]}, "properties": {"name": "Baqiao District"}, "type": "Feature"}]}