{"type": "FeatureCollection", "features": [{"geometry": {"type": "Point", "coordinates": [109.13500695262822, 36.93946377248491]}, "properties": {"name": "Ansai County"}, "type": "Feature"}, {"geometry": {"type": "Point", "coordinates": [109.64403928442604, 36.577430437743494]}, "properties": {"name": "Baota"}, "type": "Feature"}, {"geometry": {"type": "Point", "coordinates": [109.08887729456973, 36.02526105523828]}, "properties": {"name": "Fu County"}, "type": "Feature"}, {"geometry": {"type": "Point", "coordinates": [109.1582720807988, 36.3488614741241]}, "properties": {"name": "Oasis County"}, "type": "Feature"}, {"geometry": {"type": "Point", "coordinates": [109.00691375946724, 35.60957108303528]}, "properties": {"name": "Huangling County"}, "type": "Feature"}, {"geometry": {"type": "Point", "coordinates": [109.94613992229377, 35.67495398627859]}, "properties": {"name": "Huanglong"}, "type": "Feature"}, {"geometry": {"type": "Point", "coordinates": [109.52151219637965, 35.6891025809048]}, "properties": {"name": "Luochuan County"}, "type": "Feature"}, {"geometry": {"type": "Point", "coordinates": [108.11060939956951, 36.9909188613032]}, "properties": {"name": "Qi County"}, "type": "Feature"}, {"geometry": {"type": "Point", "coordinates": [110.11160503882452, 36.53995087447668]}, "properties": {"name": "Yanchang County"}, "type": "Feature"}, {"geometry": {"type": "Point", "coordinates": [110.11167530114275, 36.866792047455924]}, "properties": {"name": "Yanchuan County"}, "type": "Feature"}, {"geometry": {"type": "Point", "coordinates": [110.15085401120281, 36.03261149331132]}, "properties": {"name": "Yichuan County"}, "type": "Feature"}, {"geometry": {"type": "Point", "coordinates": [108.66149251361048, 36.80639639110272]}, "properties": {"name": "Zhidan"}, "type": "Feature"}, {"geometry": {"type": "Point", "coordinates": [109.6213419153003, 37.226796677854274]}, "properties": {"name": "Long sub-county"}, "type": "Feature"}]}