{"type": "FeatureCollection", "features": [{"geometry": {"type": "Point", "coordinates": [111.83483534578484, 37.653905988568205]}, "properties": {"name": "Jiaocheng"}, "type": "Feature"}, {"geometry": {"type": "Point", "coordinates": [111.30751028377836, 37.87185633123416]}, "properties": {"name": "Fangshan"}, "type": "Feature"}, {"geometry": {"type": "Point", "coordinates": [111.75009790442424, 37.31631212556304]}, "properties": {"name": "Fenyang City"}, "type": "Feature"}, {"geometry": {"type": "Point", "coordinates": [111.94867466482978, 37.465764543109415]}, "properties": {"name": "Wenshui County"}, "type": "Feature"}, {"geometry": {"type": "Point", "coordinates": [111.32822989496918, 36.96413965240242]}, "properties": {"name": "Jiaokou County"}, "type": "Feature"}, {"geometry": {"type": "Point", "coordinates": [111.26475755194416, 37.5595487330505]}, "properties": {"name": "Lishi District"}, "type": "Feature"}, {"geometry": {"type": "Point", "coordinates": [110.92024884493888, 37.948594635730025]}, "properties": {"name": "Linxian County"}, "type": "Feature"}, {"geometry": {"type": "Point", "coordinates": [110.86247707151877, 37.38498693722281]}, "properties": {"name": "Liulin County"}, "type": "Feature"}, {"geometry": {"type": "Point", "coordinates": [110.73675212540203, 37.02208517093292]}, "properties": {"name": "Shilou County"}, "type": "Feature"}, {"geometry": {"type": "Point", "coordinates": [111.60362656216616, 37.107762729839905]}, "properties": {"name": "Xiaoyi City"}, "type": "Feature"}, {"geometry": {"type": "Point", "coordinates": [111.06029126200664, 38.39003149188984]}, "properties": {"name": "Xingxian"}, "type": "Feature"}, {"geometry": {"type": "Point", "coordinates": [111.15847854378411, 37.27288000307111]}, "properties": {"name": "Zhongyang County"}, "type": "Feature"}, {"geometry": {"type": "Point", "coordinates": [111.60868707218063, 38.38172585793519]}, "properties": {"name": "Lanxian"}, "type": "Feature"}]}