{"type": "FeatureCollection", "features": [{"geometry": {"type": "Point", "coordinates": [111.19405829790524, 35.64423278486069]}, "properties": {"name": "Xinjiang County"}, "type": "Feature"}, {"geometry": {"type": "Point", "coordinates": [110.70083943273355, 35.61729810326025]}, "properties": {"name": "Hejin City"}, "type": "Feature"}, {"geometry": {"type": "Point", "coordinates": [110.6621465391632, 35.16107048657097]}, "properties": {"name": "Linyi County"}, "type": "Feature"}, {"geometry": {"type": "Point", "coordinates": [111.24503854237958, 34.873825119164636]}, "properties": {"name": "Ping Lu County"}, "type": "Feature"}, {"geometry": {"type": "Point", "coordinates": [110.73079485284984, 35.365942974258616]}, "properties": {"name": "Wanrong County"}, "type": "Feature"}, {"geometry": {"type": "Point", "coordinates": [111.31358706616255, 35.36180381361512]}, "properties": {"name": "Wenxi"}, "type": "Feature"}, {"geometry": {"type": "Point", "coordinates": [111.35594981264877, 35.12992337149446]}, "properties": {"name": "Xiaxian"}, "type": "Feature"}, {"geometry": {"type": "Point", "coordinates": [110.95122386462695, 35.07826757552564]}, "properties": {"name": "Yanhuqu"}, "type": "Feature"}, {"geometry": {"type": "Point", "coordinates": [110.50015509224453, 34.90287059340772]}, "properties": {"name": "Yongji City"}, "type": "Feature"}, {"geometry": {"type": "Point", "coordinates": [111.81369267780983, 35.209670481166405]}, "properties": {"name": "Yuanqu County"}, "type": "Feature"}, {"geometry": {"type": "Point", "coordinates": [110.62699849791277, 34.719540411443425]}, "properties": {"name": "Ruicheng County"}, "type": "Feature"}, {"geometry": {"type": "Point", "coordinates": [111.63508501200374, 35.50630025179467]}, "properties": {"name": "Jiangxian"}, "type": "Feature"}, {"geometry": {"type": "Point", "coordinates": [110.9324519865079, 35.591855494849405]}, "properties": {"name": "Jishan County"}, "type": "Feature"}]}