{"type": "FeatureCollection", "features": [{"geometry": {"type": "Point", "coordinates": [118.56217958225585, 37.38988650901607]}, "properties": {"name": "Dongying District"}, "type": "Feature"}, {"geometry": {"type": "Point", "coordinates": [118.5841684221386, 37.18998604323435]}, "properties": {"name": "Guangrao County"}, "type": "Feature"}, {"geometry": {"type": "Point", "coordinates": [118.57987400245854, 37.991450213535465]}, "properties": {"name": "Estuary"}, "type": "Feature"}, {"geometry": {"type": "Point", "coordinates": [118.81715346560556, 37.65314432188459]}, "properties": {"name": "Kenli County"}, "type": "Feature"}, {"geometry": {"type": "Point", "coordinates": [118.35734938864965, 37.62947204409969]}, "properties": {"name": "Lijin County"}, "type": "Feature"}]}