{"type": "FeatureCollection", "features": [{"geometry": {"type": "Point", "coordinates": [117.6164436787872, 35.88957613935462]}, "properties": {"name": "Xintai"}, "type": "Feature"}, {"geometry": {"type": "Point", "coordinates": [116.35046118847367, 35.98684689750628]}, "properties": {"name": "Dongping"}, "type": "Feature"}, {"geometry": {"type": "Point", "coordinates": [116.72231901935288, 36.10090448981582]}, "properties": {"name": "Fat city"}, "type": "Feature"}, {"geometry": {"type": "Point", "coordinates": [116.92997645878594, 35.81106432780019]}, "properties": {"name": "Ningyang"}, "type": "Feature"}, {"geometry": {"type": "Point", "coordinates": [117.17008453902157, 36.210016477699966]}, "properties": {"name": "Taishan District"}, "type": "Feature"}, {"geometry": {"type": "Point", "coordinates": [117.18155852378538, 36.166229927644046]}, "properties": {"name": "Daiyue"}, "type": "Feature"}]}