{"type": "FeatureCollection", "features": [{"geometry": {"type": "Point", "coordinates": [117.48881706279026, 35.07273619141238]}, "properties": {"name": "Shanting"}, "type": "Feature"}, {"geometry": {"type": "Point", "coordinates": [117.59342842855568, 34.864761652076595]}, "properties": {"name": "Central City"}, "type": "Feature"}, {"geometry": {"type": "Point", "coordinates": [117.60315917665196, 34.56781685196559]}, "properties": {"name": "Taierzhuang"}, "type": "Feature"}, {"geometry": {"type": "Point", "coordinates": [117.35936539169478, 34.78019971292699]}, "properties": {"name": "Xuecheng"}, "type": "Feature"}, {"geometry": {"type": "Point", "coordinates": [117.6110264132743, 34.72527535673844]}, "properties": {"name": "Yicheng"}, "type": "Feature"}, {"geometry": {"type": "Point", "coordinates": [117.13752424243707, 35.07274860611289]}, "properties": {"name": "Tengzhou City"}, "type": "Feature"}]}