{"type": "FeatureCollection", "features": [{"geometry": {"type": "Point", "coordinates": [124.14920929777996, 41.18287479319637]}, "properties": {"name": "Benxi Manchu Autonomous County"}, "type": "Feature"}, {"geometry": {"type": "Point", "coordinates": [125.31221629654546, 41.25682075915306]}, "properties": {"name": "Huanren Manchu Autonomous County"}, "type": "Feature"}, {"geometry": {"type": "Point", "coordinates": [123.87560140475709, 41.32899272415016]}, "properties": {"name": "Ming mountain"}, "type": "Feature"}, {"geometry": {"type": "Point", "coordinates": [123.80584317244711, 41.095780847758306]}, "properties": {"name": "Nanfen area"}, "type": "Feature"}, {"geometry": {"type": "Point", "coordinates": [123.69311610103645, 41.233005500533935]}, "properties": {"name": "Pingshan District"}, "type": "Feature"}, {"geometry": {"type": "Point", "coordinates": [123.71809332520658, 41.433566061215274]}, "properties": {"name": "Xihu District"}, "type": "Feature"}]}