{"type": "FeatureCollection", "features": [{"geometry": {"type": "Point", "coordinates": [123.82953201632814, 39.94189490087992]}, "properties": {"name": "Donggang"}, "type": "Feature"}, {"geometry": {"type": "Point", "coordinates": [124.04829061397677, 40.5894156417645]}, "properties": {"name": "Fengcheng"}, "type": "Feature"}, {"geometry": {"type": "Point", "coordinates": [124.9301644452286, 40.733556361455754]}, "properties": {"name": "Kuandian Manchu Autonomous County"}, "type": "Feature"}, {"geometry": {"type": "Point", "coordinates": [124.33238543918162, 40.17629280587586]}, "properties": {"name": "Ingot District"}, "type": "Feature"}, {"geometry": {"type": "Point", "coordinates": [124.34027748609542, 40.22661260871019]}, "properties": {"name": "Zhen'an District"}, "type": "Feature"}, {"geometry": {"type": "Point", "coordinates": [124.32955254881327, 40.05160016810322]}, "properties": {"name": "Zhenxing District"}, "type": "Feature"}]}