{"type": "FeatureCollection", "features": [{"geometry": {"type": "Point", "coordinates": [122.55470341065694, 40.63954415593553]}, "properties": {"name": "Dashiqiao"}, "type": "Feature"}, {"geometry": {"type": "Point", "coordinates": [122.46030594493199, 40.240170962829524]}, "properties": {"name": "Gaizhou"}, "type": "Feature"}, {"geometry": {"type": "Point", "coordinates": [122.2954122357263, 40.641570440909106]}, "properties": {"name": "Laobian"}, "type": "Feature"}, {"geometry": {"type": "Point", "coordinates": [122.17472768966628, 40.66325193692967]}, "properties": {"name": "Downtown West"}, "type": "Feature"}, {"geometry": {"type": "Point", "coordinates": [122.25012973807492, 40.70038398332168]}, "properties": {"name": "Station area"}, "type": "Feature"}, {"geometry": {"type": "Point", "coordinates": [122.14120168456608, 40.28986961329093]}, "properties": {"name": "Bayuquan area"}, "type": "Feature"}]}