{"type": "FeatureCollection", "features": [{"geometry": {"type": "Point", "coordinates": [103.2234154890476, 29.04734247865786]}, "properties": {"name": "Ebian County"}, "type": "Feature"}, {"geometry": {"type": "Point", "coordinates": [103.40426822164478, 29.4820589861391]}, "properties": {"name": "Emeishan"}, "type": "Feature"}, {"geometry": {"type": "Point", "coordinates": [103.0614156933259, 29.282345141234746]}, "properties": {"name": "Jinkouhequ"}, "type": "Feature"}, {"geometry": {"type": "Point", "coordinates": [104.03089538605337, 29.633281969918087]}, "properties": {"name": "Jingyan"}, "type": "Feature"}, {"geometry": {"type": "Point", "coordinates": [103.5103549942772, 28.777045081284353]}, "properties": {"name": "Ma-Yi Autonomous County"}, "type": "Feature"}, {"geometry": {"type": "Point", "coordinates": [103.59435514061927, 29.33484021199672]}, "properties": {"name": "Shawan"}, "type": "Feature"}, {"geometry": {"type": "Point", "coordinates": [103.76294710075074, 29.599123931915354]}, "properties": {"name": "Central City"}, "type": "Feature"}, {"geometry": {"type": "Point", "coordinates": [103.84854488506753, 29.415521642327185]}, "properties": {"name": "Wutongqiao"}, "type": "Feature"}, {"geometry": {"type": "Point", "coordinates": [103.82886397409982, 29.0229170521755]}, "properties": {"name": "Muchuan"}, "type": "Feature"}, {"geometry": {"type": "Point", "coordinates": [103.98932688211711, 29.26538325582226]}, "properties": {"name": "Qianwei County"}, "type": "Feature"}, {"geometry": {"type": "Point", "coordinates": [103.53819894136176, 29.77910219668275]}, "properties": {"name": "Jiajiang County"}, "type": "Feature"}]}