{"type": "FeatureCollection", "features": [{"geometry": {"type": "Point", "coordinates": [102.20031100226743, 27.31762679110561]}, "properties": {"name": "DeChangXian"}, "type": "Feature"}, {"geometry": {"type": "Point", "coordinates": [102.21242295770232, 26.618453733378256]}, "properties": {"name": "Huili County"}, "type": "Feature"}, {"geometry": {"type": "Point", "coordinates": [102.07872282288527, 28.521984501625315]}, "properties": {"name": "Mianning"}, "type": "Feature"}, {"geometry": {"type": "Point", "coordinates": [100.90672164442277, 28.380643169720393]}, "properties": {"name": "Muli Tibetan Autonomous County"}, "type": "Feature"}, {"geometry": {"type": "Point", "coordinates": [102.58891544101962, 27.53165933399047]}, "properties": {"name": "Pugh County"}, "type": "Feature"}, {"geometry": {"type": "Point", "coordinates": [102.10833624437957, 27.87285554395992]}, "properties": {"name": "Xichang City"}, "type": "Feature"}, {"geometry": {"type": "Point", "coordinates": [102.41417411209424, 28.200172766169104]}, "properties": {"name": "Xide County"}, "type": "Feature"}, {"geometry": {"type": "Point", "coordinates": [101.4170830908371, 27.63698657203916]}, "properties": {"name": "Yanyuan County"}, "type": "Feature"}, {"geometry": {"type": "Point", "coordinates": [103.21176972787518, 27.689964497376977]}, "properties": {"name": "Jinyang County"}, "type": "Feature"}, {"geometry": {"type": "Point", "coordinates": [103.49016978457927, 28.253907870588545]}, "properties": {"name": "Leibo County"}, "type": "Feature"}, {"geometry": {"type": "Point", "coordinates": [103.11005932758279, 28.43033950667145]}, "properties": {"name": "Meigu"}, "type": "Feature"}, {"geometry": {"type": "Point", "coordinates": [102.85734064688347, 27.609130421569493]}, "properties": {"name": "Butuo County"}, "type": "Feature"}, {"geometry": {"type": "Point", "coordinates": [102.76404322659353, 29.006181996503994]}, "properties": {"name": "Ganluo"}, "type": "Feature"}, {"geometry": {"type": "Point", "coordinates": [102.71923570393115, 26.572745797189988]}, "properties": {"name": "East County"}, "type": "Feature"}, {"geometry": {"type": "Point", "coordinates": [102.69033786149876, 27.08014952280971]}, "properties": {"name": "Ningnan"}, "type": "Feature"}, {"geometry": {"type": "Point", "coordinates": [102.60504619757754, 28.585819724581388]}, "properties": {"name": "Yuexi County"}, "type": "Feature"}, {"geometry": {"type": "Point", "coordinates": [102.83299265870376, 28.011183754065804]}, "properties": {"name": "Zhaojue County"}, "type": "Feature"}]}