{"type": "FeatureCollection", "features": [{"geometry": {"type": "Point", "coordinates": [105.45046204796213, 28.98436455771119]}, "properties": {"name": "Longmatan"}, "type": "Feature"}, {"geometry": {"type": "Point", "coordinates": [105.90071444858474, 28.00362155289579]}, "properties": {"name": "Gulin"}, "type": "Feature"}, {"geometry": {"type": "Point", "coordinates": [105.8773097943419, 28.730269959760054]}, "properties": {"name": "Jiangxian"}, "type": "Feature"}, {"geometry": {"type": "Point", "coordinates": [105.40816270457421, 28.87091129711772]}, "properties": {"name": "Jiangyang"}, "type": "Feature"}, {"geometry": {"type": "Point", "coordinates": [105.42530250082707, 28.659496404107788]}, "properties": {"name": "Naxi District"}, "type": "Feature"}, {"geometry": {"type": "Point", "coordinates": [105.45292676865031, 28.089049069672676]}, "properties": {"name": "Xuyong County"}, "type": "Feature"}, {"geometry": {"type": "Point", "coordinates": [105.50012537173819, 29.107158919882732]}, "properties": {"name": "Luxian"}, "type": "Feature"}]}