{"type": "FeatureCollection", "features": [{"geometry": {"type": "Point", "coordinates": [102.264544590024, 29.221779945253612]}, "properties": {"name": "Shimian"}, "type": "Feature"}, {"geometry": {"type": "Point", "coordinates": [102.99783484971844, 30.419062773436032]}, "properties": {"name": "Lushan County"}, "type": "Feature"}, {"geometry": {"type": "Point", "coordinates": [103.21751621110283, 30.09746883412628]}, "properties": {"name": "Mingshan"}, "type": "Feature"}, {"geometry": {"type": "Point", "coordinates": [102.61206680023001, 29.396616822632403]}, "properties": {"name": "Hanyuan"}, "type": "Feature"}, {"geometry": {"type": "Point", "coordinates": [102.59426692162751, 30.076337820547288]}, "properties": {"name": "Days of the county"}, "type": "Feature"}, {"geometry": {"type": "Point", "coordinates": [102.68721112730093, 29.742666396279418]}, "properties": {"name": "Yingjing"}, "type": "Feature"}, {"geometry": {"type": "Point", "coordinates": [103.07388010960055, 29.947633258719076]}, "properties": {"name": "Yucheng District"}, "type": "Feature"}, {"geometry": {"type": "Point", "coordinates": [102.72942121815126, 30.55603341787854]}, "properties": {"name": "Baoxing County"}, "type": "Feature"}]}