{"type": "FeatureCollection", "features": [{"geometry": {"type": "Point", "coordinates": [111.6066142116487, 25.52558663444358]}, "properties": {"name": "County Road"}, "type": "Feature"}, {"geometry": {"type": "Point", "coordinates": [111.32134779251143, 26.48491869511449]}, "properties": {"name": "East County"}, "type": "Feature"}, {"geometry": {"type": "Point", "coordinates": [111.75338974828699, 24.997137717739964]}, "properties": {"name": "Jianghua Yao Autonomous County"}, "type": "Feature"}, {"geometry": {"type": "Point", "coordinates": [111.25404843472342, 25.1708263238949]}, "properties": {"name": "Jiangyong County"}, "type": "Feature"}, {"geometry": {"type": "Point", "coordinates": [112.19215185294283, 25.346523748433984]}, "properties": {"name": "Lanshan County"}, "type": "Feature"}, {"geometry": {"type": "Point", "coordinates": [111.59742192775147, 26.51659618259375]}, "properties": {"name": "Lengshuitan area"}, "type": "Feature"}, {"geometry": {"type": "Point", "coordinates": [111.56067322110958, 26.126588756535874]}, "properties": {"name": "Lingling District"}, "type": "Feature"}, {"geometry": {"type": "Point", "coordinates": [112.01253460006492, 25.692202757490616]}, "properties": {"name": "Ningyuan"}, "type": "Feature"}, {"geometry": {"type": "Point", "coordinates": [111.96133506671094, 26.476076046152482]}, "properties": {"name": "Qiyang County"}, "type": "Feature"}, {"geometry": {"type": "Point", "coordinates": [111.66270309096032, 25.914411510629275]}, "properties": {"name": "Shuangpai County"}, "type": "Feature"}, {"geometry": {"type": "Point", "coordinates": [112.19744954877879, 25.854518269070155]}, "properties": {"name": "Xintian County"}, "type": "Feature"}]}