{"type": "FeatureCollection", "features": [{"geometry": {"type": "Point", "coordinates": [112.8655211802006, 29.4648802468078]}, "properties": {"name": "Junshan"}, "type": "Feature"}, {"geometry": {"type": "Point", "coordinates": [113.69423292133392, 28.775427775376638]}, "properties": {"name": "Pingjiang"}, "type": "Feature"}, {"geometry": {"type": "Point", "coordinates": [112.78459470829362, 28.669163197829523]}, "properties": {"name": "Xiangyin County"}, "type": "Feature"}, {"geometry": {"type": "Point", "coordinates": [113.20511958960331, 29.333862799890902]}, "properties": {"name": "Yueyang Tower District"}, "type": "Feature"}, {"geometry": {"type": "Point", "coordinates": [113.22927444160368, 29.20464614900145]}, "properties": {"name": "Yueyang County"}, "type": "Feature"}, {"geometry": {"type": "Point", "coordinates": [113.11950370165539, 28.786294337221516]}, "properties": {"name": "Miluo City"}, "type": "Feature"}, {"geometry": {"type": "Point", "coordinates": [112.70350570837748, 29.53240250863544]}, "properties": {"name": "Huarong County"}, "type": "Feature"}, {"geometry": {"type": "Point", "coordinates": [113.48858801211848, 29.48945139135991]}, "properties": {"name": "Linxiang"}, "type": "Feature"}, {"geometry": {"type": "Point", "coordinates": [113.32647002033025, 29.509691987470237]}, "properties": {"name": "Cloud River District"}, "type": "Feature"}]}