{"type": "FeatureCollection", "features": [{"geometry": {"type": "Point", "coordinates": [119.5769655275986, 30.61666307894251]}, "properties": {"name": "Anji County"}, "type": "Feature"}, {"geometry": {"type": "Point", "coordinates": [119.80566276531837, 30.963084646915824]}, "properties": {"name": "Changxing County"}, "type": "Feature"}, {"geometry": {"type": "Point", "coordinates": [120.06831752986825, 30.586286671916668]}, "properties": {"name": "Deqing County"}, "type": "Feature"}, {"geometry": {"type": "Point", "coordinates": [120.30579525292734, 30.752283162568506]}, "properties": {"name": "Nanxun"}, "type": "Feature"}, {"geometry": {"type": "Point", "coordinates": [120.10570773521995, 30.798790567774123]}, "properties": {"name": "Wuxing"}, "type": "Feature"}]}