{"type": "FeatureCollection", "features": [{"geometry": {"type": "Point", "coordinates": [120.60778134079375, 30.440482700776958]}, "properties": {"name": "Haining City"}, "type": "Feature"}, {"geometry": {"type": "Point", "coordinates": [120.90414720091137, 30.484821619056863]}, "properties": {"name": "Haiyan"}, "type": "Feature"}, {"geometry": {"type": "Point", "coordinates": [120.8934030114171, 30.904191032748898]}, "properties": {"name": "Jiashan County"}, "type": "Feature"}, {"geometry": {"type": "Point", "coordinates": [120.80501575968128, 30.713532979602345]}, "properties": {"name": "Lake District"}, "type": "Feature"}, {"geometry": {"type": "Point", "coordinates": [121.08424054419191, 30.73101533652296]}, "properties": {"name": "Pinghu"}, "type": "Feature"}, {"geometry": {"type": "Point", "coordinates": [120.47862660843496, 30.626510559724306]}, "properties": {"name": "Tongxiang"}, "type": "Feature"}, {"geometry": {"type": "Point", "coordinates": [120.69616983677805, 30.745406619684953]}, "properties": {"name": "Xiuzhou District"}, "type": "Feature"}]}