{"type": "FeatureCollection", "features": [{"geometry": {"type": "Point", "coordinates": [121.52845593634453, 29.878947096705716]}, "properties": {"name": "Haishu District"}, "type": "Feature"}, {"geometry": {"type": "Point", "coordinates": [121.92879161220095, 29.852939763010767]}, "properties": {"name": "Beilun District"}, "type": "Feature"}, {"geometry": {"type": "Point", "coordinates": [121.27550992409672, 30.19373290117112]}, "properties": {"name": "Cixi"}, "type": "Feature"}, {"geometry": {"type": "Point", "coordinates": [121.39609988893956, 29.589024318755293]}, "properties": {"name": "Fenghua"}, "type": "Feature"}, {"geometry": {"type": "Point", "coordinates": [121.48733029210939, 29.95572550009823]}, "properties": {"name": "Jiangbei District"}, "type": "Feature"}, {"geometry": {"type": "Point", "coordinates": [121.58512738089739, 29.86787925968705]}, "properties": {"name": "Koto district"}, "type": "Feature"}, {"geometry": {"type": "Point", "coordinates": [121.49617587128361, 29.331512237925566]}, "properties": {"name": "Ninghai County"}, "type": "Feature"}, {"geometry": {"type": "Point", "coordinates": [121.91687646061916, 29.318920053832898]}, "properties": {"name": "Xiangshan County"}, "type": "Feature"}, {"geometry": {"type": "Point", "coordinates": [121.13233287699946, 29.988781806587625]}, "properties": {"name": "Yuyao"}, "type": "Feature"}, {"geometry": {"type": "Point", "coordinates": [121.61893229148608, 29.9798528643403]}, "properties": {"name": "Zhenhai District"}, "type": "Feature"}, {"geometry": {"type": "Point", "coordinates": [121.4943722081698, 29.818032972296844]}, "properties": {"name": "Yinzhou District"}, "type": "Feature"}]}