{"type": "FeatureCollection", "features": [{"geometry": {"type": "Point", "coordinates": [120.46899064316871, 27.366112019326987]}, "properties": {"name": "Cangnan County"}, "type": "Feature"}, {"geometry": {"type": "Point", "coordinates": [121.11641862721298, 27.867960025512872]}, "properties": {"name": "Dongtou"}, "type": "Feature"}, {"geometry": {"type": "Point", "coordinates": [120.79861650349837, 27.924171141033625]}, "properties": {"name": "Longwan District"}, "type": "Feature"}, {"geometry": {"type": "Point", "coordinates": [120.54886069221271, 28.056171076583805]}, "properties": {"name": "Lucheng District"}, "type": "Feature"}, {"geometry": {"type": "Point", "coordinates": [120.63877691329806, 27.57142915495116]}, "properties": {"name": "Pingyang County"}, "type": "Feature"}, {"geometry": {"type": "Point", "coordinates": [120.64722834473598, 27.76658869759706]}, "properties": {"name": "Ruian"}, "type": "Feature"}, {"geometry": {"type": "Point", "coordinates": [119.889353997436, 27.518703673963294]}, "properties": {"name": "Taishun County"}, "type": "Feature"}, {"geometry": {"type": "Point", "coordinates": [120.0192779487396, 27.790373460712917]}, "properties": {"name": "Wencheng County"}, "type": "Feature"}, {"geometry": {"type": "Point", "coordinates": [120.64418543668164, 28.384083931904883]}, "properties": {"name": "Yongjia County"}, "type": "Feature"}, {"geometry": {"type": "Point", "coordinates": [120.53413236662581, 27.979127310186275]}, "properties": {"name": "Ouhai"}, "type": "Feature"}, {"geometry": {"type": "Point", "coordinates": [121.04909744395118, 28.27877842542492]}, "properties": {"name": "Yueqing"}, "type": "Feature"}]}