{"type": "FeatureCollection", "features": [{"geometry": {"type": "Point", "coordinates": [118.16857987408511, 43.680942497196455]}, "properties": {"name": "Linxi"}, "type": "Feature"}, {"geometry": {"type": "Point", "coordinates": [119.89848026620524, 44.32724467989771]}, "properties": {"name": "Alukerqinqi"}, "type": "Feature"}, {"geometry": {"type": "Point", "coordinates": [120.14533706774792, 42.36184348964843]}, "properties": {"name": "Aohanqi"}, "type": "Feature"}, {"geometry": {"type": "Point", "coordinates": [118.859244917696, 43.77372540352564]}, "properties": {"name": "Balinyouqi"}, "type": "Feature"}, {"geometry": {"type": "Point", "coordinates": [119.29632214679705, 44.20554668742693]}, "properties": {"name": "Balinzuoqi"}, "type": "Feature"}, {"geometry": {"type": "Point", "coordinates": [118.99394671706504, 42.21981141823775]}, "properties": {"name": "Hongshan"}, "type": "Feature"}, {"geometry": {"type": "Point", "coordinates": [118.74095381032281, 41.93426272031876]}, "properties": {"name": "Kala Qin flag"}, "type": "Feature"}, {"geometry": {"type": "Point", "coordinates": [117.41710156821985, 43.19262197083166]}, "properties": {"name": "Keshiketengqi"}, "type": "Feature"}, {"geometry": {"type": "Point", "coordinates": [118.85278436624482, 41.56068547682668]}, "properties": {"name": "Ning County"}, "type": "Feature"}, {"geometry": {"type": "Point", "coordinates": [118.76710607795066, 42.40062862012082]}, "properties": {"name": "Songshan District"}, "type": "Feature"}, {"geometry": {"type": "Point", "coordinates": [119.38472843087366, 42.946087654162675]}, "properties": {"name": "Wengniute"}, "type": "Feature"}, {"geometry": {"type": "Point", "coordinates": [119.24292638143007, 42.1907529356289]}, "properties": {"name": "Yuanbaoshan area"}, "type": "Feature"}]}