{"type": "FeatureCollection", "features": [{"geometry": {"type": "Point", "coordinates": [109.98945, 39.81788]}, "properties": {"name": "Dongsheng District"}, "type": "Feature"}, {"geometry": {"type": "Point", "coordinates": [109.790076, 39.607472]}, "properties": {"name": "Kang Bashi District"}, "type": "Feature"}, {"geometry": {"type": "Point", "coordinates": [110.040281, 40.404076]}, "properties": {"name": "Dalateqi"}, "type": "Feature"}, {"geometry": {"type": "Point", "coordinates": [111.238332, 39.865221]}, "properties": {"name": "Jungar Banner"}, "type": "Feature"}, {"geometry": {"type": "Point", "coordinates": [107.48172, 38.183257]}, "properties": {"name": "Etuokeqianqi"}, "type": "Feature"}, {"geometry": {"type": "Point", "coordinates": [107.982604, 39.095752]}, "properties": {"name": "Etuokeqi"}, "type": "Feature"}, {"geometry": {"type": "Point", "coordinates": [108.736324, 39.831789]}, "properties": {"name": "Hangjinqi"}, "type": "Feature"}, {"geometry": {"type": "Point", "coordinates": [108.842454, 38.596611]}, "properties": {"name": "Wushenqi"}, "type": "Feature"}, {"geometry": {"type": "Point", "coordinates": [109.787402, 39.604312]}, "properties": {"name": "Yijinhuoluo"}, "type": "Feature"}]}