{"type": "FeatureCollection", "features": [{"geometry": {"type": "Point", "coordinates": [120.54235743314008, 47.165966422463384]}, "properties": {"name": "Aershan"}, "type": "Feature"}, {"geometry": {"type": "Point", "coordinates": [121.3174854704586, 46.290060887862204]}, "properties": {"name": "Horqin Right Front Banner"}, "type": "Feature"}, {"geometry": {"type": "Point", "coordinates": [120.97416406950343, 45.33601915652118]}, "properties": {"name": "Horqin Right Middle Banner"}, "type": "Feature"}, {"geometry": {"type": "Point", "coordinates": [121.42087915242813, 45.69630075583265]}, "properties": {"name": "Tuquan"}, "type": "Feature"}, {"geometry": {"type": "Point", "coordinates": [122.0264842577216, 46.11444137330476]}, "properties": {"name": "Wulanhaote"}, "type": "Feature"}, {"geometry": {"type": "Point", "coordinates": [122.59829270353266, 46.78745915623257]}, "properties": {"name": "Jalaid banner"}, "type": "Feature"}]}