{"type": "FeatureCollection", "features": [{"geometry": {"type": "Point", "coordinates": [114.19045807960646, 38.87770203405414]}, "properties": {"name": "Fuping County"}, "type": "Feature"}, {"geometry": {"type": "Point", "coordinates": [115.9884567544415, 39.25396358843305]}, "properties": {"name": "Gaobeidian City"}, "type": "Feature"}, {"geometry": {"type": "Point", "coordinates": [115.35347765846444, 38.38349010896749]}, "properties": {"name": "Yasukuni City"}, "type": "Feature"}, {"geometry": {"type": "Point", "coordinates": [115.8416289287931, 38.86119618274192]}, "properties": {"name": "The new county"}, "type": "Feature"}, {"geometry": {"type": "Point", "coordinates": [115.51042111445238, 38.88354729264228]}, "properties": {"name": "Taipei District"}, "type": "Feature"}, {"geometry": {"type": "Point", "coordinates": [115.48455347365162, 38.423026380210565]}, "properties": {"name": "Boye"}, "type": "Feature"}, {"geometry": {"type": "Point", "coordinates": [115.76562065928324, 39.18735039008961]}, "properties": {"name": "Dingxingxian"}, "type": "Feature"}, {"geometry": {"type": "Point", "coordinates": [115.01993569335862, 38.444691514205005]}, "properties": {"name": "Dingzhou"}, "type": "Feature"}, {"geometry": {"type": "Point", "coordinates": [115.81515419134227, 38.66157705709658]}, "properties": {"name": "Gaoyang County"}, "type": "Feature"}, {"geometry": {"type": "Point", "coordinates": [115.2266010867522, 38.97365670284931]}, "properties": {"name": "Mancheng County"}, "type": "Feature"}, {"geometry": {"type": "Point", "coordinates": [115.46369306038348, 38.82166778137282]}, "properties": {"name": "Nanshiqu"}, "type": "Feature"}, {"geometry": {"type": "Point", "coordinates": [115.50883270225164, 38.73945946548253]}, "properties": {"name": "Qingyuan County"}, "type": "Feature"}, {"geometry": {"type": "Point", "coordinates": [114.63568777049177, 38.70180624659679]}, "properties": {"name": "Quyang County"}, "type": "Feature"}, {"geometry": {"type": "Point", "coordinates": [115.8961526529068, 39.06591292779982]}, "properties": {"name": "Rongcheng County"}, "type": "Feature"}, {"geometry": {"type": "Point", "coordinates": [115.05497016739034, 38.943839639224784]}, "properties": {"name": "Shunping County"}, "type": "Feature"}, {"geometry": {"type": "Point", "coordinates": [114.80062221034973, 38.86030431136995]}, "properties": {"name": "Tang County"}, "type": "Feature"}, {"geometry": {"type": "Point", "coordinates": [115.14875307064742, 38.675205668582834]}, "properties": {"name": "Wangdu"}, "type": "Feature"}, {"geometry": {"type": "Point", "coordinates": [115.41303318232492, 38.87505084384169]}, "properties": {"name": "Newly"}, "type": "Feature"}, {"geometry": {"type": "Point", "coordinates": [116.18838731135318, 39.028452043883874]}, "properties": {"name": "Xiong County"}, "type": "Feature"}, {"geometry": {"type": "Point", "coordinates": [115.56233083863773, 39.03637098333454]}, "properties": {"name": "Xushui"}, "type": "Feature"}, {"geometry": {"type": "Point", "coordinates": [115.21008658907172, 39.29713138226756]}, "properties": {"name": "Yixian"}, "type": "Feature"}, {"geometry": {"type": "Point", "coordinates": [115.4364260100755, 39.611221423143725]}, "properties": {"name": "Laishui County"}, "type": "Feature"}, {"geometry": {"type": "Point", "coordinates": [114.72251067290851, 39.37560632763929]}, "properties": {"name": "Laiyuan County"}, "type": "Feature"}, {"geometry": {"type": "Point", "coordinates": [115.95426741361948, 39.48497807493014]}, "properties": {"name": "Zhuozhou"}, "type": "Feature"}, {"geometry": {"type": "Point", "coordinates": [115.66357812186172, 38.513719845978606]}, "properties": {"name": "Lixian"}, "type": "Feature"}]}