{"type": "FeatureCollection", "features": [{"geometry": {"type": "Point", "coordinates": [116.3861454632219, 38.08004948863948]}, "properties": {"name": "Botou"}, "type": "Feature"}, {"geometry": {"type": "Point", "coordinates": [116.85718116907847, 38.295526934677554]}, "properties": {"name": "Cangxian"}, "type": "Feature"}, {"geometry": {"type": "Point", "coordinates": [116.66723308764396, 37.86593217768229]}, "properties": {"name": "East County"}, "type": "Feature"}, {"geometry": {"type": "Point", "coordinates": [117.53560419578412, 38.11755058858302]}, "properties": {"name": "Haixing County"}, "type": "Feature"}, {"geometry": {"type": "Point", "coordinates": [116.27461218552475, 38.48199403840123]}, "properties": {"name": "Hejian City"}, "type": "Feature"}, {"geometry": {"type": "Point", "coordinates": [117.420274653155, 38.382426294705574]}, "properties": {"name": "Huanghua"}, "type": "Feature"}, {"geometry": {"type": "Point", "coordinates": [117.16107029008165, 38.10473963543112]}, "properties": {"name": "Mengcun Hui Autonomous County"}, "type": "Feature"}, {"geometry": {"type": "Point", "coordinates": [116.82863904700778, 38.01743999601703]}, "properties": {"name": "South County"}, "type": "Feature"}, {"geometry": {"type": "Point", "coordinates": [116.81891219725946, 38.55469194504447]}, "properties": {"name": "Qingxian"}, "type": "Feature"}, {"geometry": {"type": "Point", "coordinates": [116.1500904500423, 38.72993713137705]}, "properties": {"name": "Renqiu"}, "type": "Feature"}, {"geometry": {"type": "Point", "coordinates": [115.87277558331701, 38.42949044571538]}, "properties": {"name": "Suning County"}, "type": "Feature"}, {"geometry": {"type": "Point", "coordinates": [116.48830705795223, 37.660863709145154]}, "properties": {"name": "Wuqiao County"}, "type": "Feature"}, {"geometry": {"type": "Point", "coordinates": [116.14028564689666, 38.23117877090208]}, "properties": {"name": "Xian County"}, "type": "Feature"}, {"geometry": {"type": "Point", "coordinates": [116.88777755481489, 38.30068195923823]}, "properties": {"name": "Xinhua District"}, "type": "Feature"}, {"geometry": {"type": "Point", "coordinates": [117.23761314140152, 37.97275865182957]}, "properties": {"name": "Yanshan County"}, "type": "Feature"}, {"geometry": {"type": "Point", "coordinates": [116.82155770293282, 38.30462628582179]}, "properties": {"name": "Canal Zone"}, "type": "Feature"}]}