{"type": "FeatureCollection", "features": [{"geometry": {"type": "Point", "coordinates": [104.3554376104896, 25.481754589316495]}, "properties": {"name": "Fuyuan County"}, "type": "Feature"}, {"geometry": {"type": "Point", "coordinates": [103.46947893012808, 26.440576864556185]}, "properties": {"name": "Huize"}, "type": "Feature"}, {"geometry": {"type": "Point", "coordinates": [103.70393152560703, 25.042755716107035]}, "properties": {"name": "Luliang County"}, "type": "Feature"}, {"geometry": {"type": "Point", "coordinates": [104.3195504528334, 24.955654062568808]}, "properties": {"name": "Luoping County"}, "type": "Feature"}, {"geometry": {"type": "Point", "coordinates": [103.50651150812541, 25.370956367058156]}, "properties": {"name": "Malone County"}, "type": "Feature"}, {"geometry": {"type": "Point", "coordinates": [104.1267118625693, 24.676005614162598]}, "properties": {"name": "Shizong County"}, "type": "Feature"}, {"geometry": {"type": "Point", "coordinates": [104.09001599745784, 26.22367513187543]}, "properties": {"name": "Xuanwei"}, "type": "Feature"}, {"geometry": {"type": "Point", "coordinates": [103.80976919788644, 25.815859429729475]}, "properties": {"name": "Zhanyi County"}, "type": "Feature"}, {"geometry": {"type": "Point", "coordinates": [103.92164716841236, 25.353121110504436]}, "properties": {"name": "Qilin District"}, "type": "Feature"}]}